$GPGGA,013122.811,3854.929,N,07702.499,W,0,00,,,M,,M,,*54
$GPGLL,3854.929,N,07702.499,W,013123.811,V*35
$GPGSA,A,2,07,05,17,14,11,13,,,,,,,0.0,0.7,0.2*35
$GPGGA,013125.811,3854.928,N,07702.501,W,0,00,0.7,,M,,M,,*7B
$GPGLL,3854.928,N,07702.501,W,013126.811,V*31
$GPGSA,A,2,07,05,17,14,11,13,,,,,,,1.0,0.4,0.8*3D
$GPGGA,013128.811,3854.927,N,07702.502,W,0,00,0.4,,M,,M,,*79
$GPGLL,3854.927,N,07702.502,W,013129.811,V*32
$GPGSA,A,3,07,05,17,14,11,13,,,,,,,0.2,0.1,0.3*31
$GPGGA,013131.811,3854.926,N,07702.504,W,0,00,0.1,,M,,M,,*73
$GPGLL,3854.926,N,07702.504,W,013132.811,V*3F
$GPGSA,A,2,07,05,17,14,11,13,,,,,,,0.2,0.4,0.4*32
$GPGGA,013134.811,3854.925,N,07702.505,W,0,00,0.4,,M,,M,,*71
$GPGLL,3854.925,N,07702.505,W,013135.811,V*3A
$GPGSA,A,2,07,05,17,14,11,13,,,,,,,0.6,0.9,0.7*38
$GPGGA,013137.811,3854.924,N,07702.507,W,0,00,0.9,,M,,M,,*7C
$GPGLL,3854.924,N,07702.507,W,013138.811,V*34
$GPGSA,A,2,07,05,17,14,11,13,,,,,,,0.3,1.0,0.2*30
$GPGGA,013140.811,3854.923,N,07702.508,W,0,00,1.0,,M,,M,,*7C
$GPGLL,3854.923,N,07702.508,W,013141.811,V*32
$GPGSA,A,2,07,05,17,14,11,13,,,,,,,0.5,0.7,0.1*33
$GPGGA,013143.811,3854.922,N,07702.509,W,0,00,0.7,,M,,M,,*79
$GPGLL,3854.922,N,07702.509,W,013144.811,V*37
$GPGSA,A,3,07,05,17,14,11,13,,,,,,,0.9,0.9,0.6*37
$GPGGA,013146.811,3854.921,N,07702.510,W,0,00,0.9,,M,,M,,*79
$GPGLL,3854.921,N,07702.510,W,013147.811,V*3F
$GPGSA,A,2,07,05,17,14,11,13,,,,,,,0.3,0.3,0.3*33
$GPGGA,013149.811,3854.919,N,07702.511,W,0,00,0.3,,M,,M,,*76
$GPGLL,3854.919,N,07702.511,W,013150.811,V*33
$GPGSA,A,2,07,05,17,14,11,13,,,,,,,0.2,0.9,0.7*3C
$GPGGA,013152.811,3854.917,N,07702.511,W,0,00,0.9,,M,,M,,*78
$GPGLL,3854.917,N,07702.511,W,013153.811,V*3E
$GPGSA,A,2,07,05,17,14,11,13,,,,,,,0.7,0.9,0.1*3F
$GPGGA,013155.811,3854.915,N,07702.511,W,0,00,0.9,,M,,M,,*7D
$GPGLL,3854.915,N,07702.511,W,013156.811,V*39
$GPGSA,A,3,07,05,17,14,11,13,,,,,,,0.2,0.1,0.3*31
$GPGGA,013158.811,3854.914,N,07702.510,W,0,00,0.1,,M,,M,,*78
$GPGLL,3854.914,N,07702.510,W,013159.811,V*36
$GPGSA,A,2,07,05,17,14,11,13,,,,,,,0.2,0.9,0.5*3E
$GPGGA,013201.811,3854.912,N,07702.510,W,0,00,0.9,,M,,M,,*79
$GPGLL,3854.912,N,07702.510,W,013202.811,V*3D
$GPGSA,A,3,07,05,17,14,11,13,,,,,,,0.5,1.0,0.6*33
$GPGGA,013204.811,3854.910,N,07702.510,W,0,00,1.0,,M,,M,,*76
$GPGLL,3854.910,N,07702.510,W,013205.811,V*38
$GPGSA,A,2,07,05,17,14,11,13,,,,,,,0.7,0.6,0.2*33
$GPGGA,013207.811,3854.909,N,07702.511,W,0,00,0.6,,M,,M,,*7B
$GPGLL,3854.909,N,07702.511,W,013208.811,V*3C
$GPGSA,A,2,07,05,17,14,11,13,,,,,,,0.5,0.8,0.1*3C
$GPGGA,013210.811,3854.907,N,07702.513,W,0,00,0.8,,M,,M,,*7F
$GPGLL,3854.907,N,07702.513,W,013211.811,V*38
$GPGSA,A,2,07,05,17,14,11,13,,,,,,,0.8,0.3,0.9*32
$GPGGA,013213.811,3854.906,N,07702.514,W,0,00,0.3,,M,,M,,*71
$GPGLL,3854.906,N,07702.514,W,013214.811,V*3B
$GPGSA,A,2,07,05,17,14,11,13,,,,,,,0.4,0.2,0.6*30
$GPGGA,013216.811,3854.905,N,07702.515,W,0,00,0.2,,M,,M,,*77
$GPGLL,3854.905,N,07702.515,W,013217.811,V*3A
$GPGSA,A,2,07,05,17,14,11,13,,,,,,,1.0,0.6,0.8*3F
$GPGGA,013219.811,3854.903,N,07702.516,W,0,00,0.6,,M,,M,,*79
$GPGLL,3854.903,N,07702.516,W,013220.811,V*3B
$GPGSA,A,2,07,05,17,14,11,13,,,,,,,0.0,0.1,0.5*34
$GPGGA,013222.811,3854.902,N,07702.518,W,0,00,0.1,,M,,M,,*79
$GPGLL,3854.902,N,07702.518,W,013223.811,V*37
$GPGSA,A,2,07,05,17,14,11,13,,,,,,,0.6,0.2,0.4*30
$GPGGA,013225.811,3854.901,N,07702.519,W,0,00,0.2,,M,,M,,*7F
$GPGLL,3854.901,N,07702.519,W,013226.811,V*30
$GPGSA,A,3,07,05,17,14,11,13,,,,,,,0.2,1.0,0.1*33
$GPGGA,013228.811,3854.900,N,07702.520,W,0,00,1.0,,M,,M,,*7A
$GPGLL,3854.900,N,07702.520,W,013229.811,V*34
$GPGSA,A,2,07,05,17,14,11,13,,,,,,,0.7,0.7,0.5*35
$GPGGA,013231.811,3854.899,N,07702.522,W,0,00,0.7,,M,,M,,*77
$GPGLL,3854.899,N,07702.522,W,013232.811,V*3D
$GPGSA,A,2,07,05,17,14,11,13,,,,,,,0.9,1.0,0.4*3C
$GPGGA,013234.811,3854.898,N,07702.523,W,0,00,1.0,,M,,M,,*74
$GPGLL,3854.898,N,07702.523,W,013235.811,V*3A
$GPGSA,A,2,07,05,17,14,11,13,,,,,,,0.6,1.0,0.7*30
$GPGGA,013237.811,3854.897,N,07702.525,W,0,00,1.0,,M,,M,,*7E
$GPGLL,3854.897,N,07702.525,W,013238.811,V*3E
$GPGSA,A,2,07,05,17,14,11,13,,,,,,,0.5,0.4,0.8*39
$GPGGA,013240.811,3854.896,N,07702.526,W,0,00,0.4,,M,,M,,*79
$GPGLL,3854.896,N,07702.526,W,013241.811,V*32
$GPGSA,A,3,07,05,17,14,11,13,,,,,,,0.5,0.7,0.3*30
$GPGGA,013243.811,3854.895,N,07702.528,W,0,00,0.7,,M,,M,,*74
$GPGLL,3854.895,N,07702.528,W,013244.811,V*3A
$GPGSA,A,3,07,05,17,14,11,13,,,,,,,0.5,0.3,1.0*36
$GPGGA,013246.811,3854.893,N,07702.529,W,0,00,0.3,,M,,M,,*72
$GPGLL,3854.893,N,07702.529,W,013247.811,V*3E
$GPGSA,A,2,07,05,17,14,11,13,,,,,,,0.9,0.1,0.2*3A
$GPGGA,013249.811,3854.892,N,07702.530,W,0,00,0.1,,M,,M,,*76
$GPGLL,3854.892,N,07702.530,W,013250.811,V*31
$GPGSA,A,2,07,05,17,14,11,13,,,,,,,0.1,0.8,0.5*3C
$GPGGA,013252.811,3854.891,N,07702.531,W,0,00,0.8,,M,,M,,*77
$GPGLL,3854.891,N,07702.531,W,013253.811,V*30
$GPGSA,A,2,07,05,17,14,11,13,,,,,,,0.4,0.8,0.7*3B
$GPGGA,013255.811,3854.889,N,07702.532,W,0,00,0.8,,M,,M,,*7A
$GPGLL,3854.889,N,07702.532,W,013256.811,V*3F
$GPGSA,A,2,07,05,17,14,11,13,,,,,,,0.5,0.3,0.3*35
$GPGGA,013258.811,3854.888,N,07702.533,W,0,00,0.3,,M,,M,,*7C
$GPGLL,3854.888,N,07702.533,W,013259.811,V*30
$GPGSA,A,2,07,05,17,14,11,13,,,,,,,0.5,0.4,0.2*33
$GPGGA,013301.811,3854.886,N,07702.534,W,0,00,0.4,,M,,M,,*7F
$GPGLL,3854.886,N,07702.534,W,013302.811,V*36
$GPGSA,A,3,07,05,17,14,11,13,,,,,,,0.2,0.4,1.0*36
$GPGGA,013304.811,3854.884,N,07702.535,W,0,00,0.4,,M,,M,,*79
$GPGLL,3854.884,N,07702.535,W,013305.811,V*32
$GPGSA,A,2,07,05,17,14,11,13,,,,,,,0.5,0.9,0.2*3E
$GPGGA,013307.811,3854.883,N,07702.536,W,0,00,0.9,,M,,M,,*73
$GPGLL,3854.883,N,07702.536,W,013308.811,V*3B
$GPGSA,A,2,07,05,17,14,11,13,,,,,,,0.9,0.3,0.9*33
$GPGGA,013310.811,3854.881,N,07702.536,W,0,00,0.3,,M,,M,,*7D
$GPGLL,3854.881,N,07702.536,W,013311.811,V*31
$GPGSA,A,3,07,05,17,14,11,13,,,,,,,0.7,0.4,0.7*35
$GPGGA,013313.811,3854.880,N,07702.537,W,0,00,0.4,,M,,M,,*79
$GPGLL,3854.880,N,07702.537,W,013314.811,V*34
$GPGSA,A,2,07,05,17,14,11,13,,,,,,,0.6,0.0,0.9*3F
$GPGGA,013316.811,3854.878,N,07702.537,W,0,00,0.0,,M,,M,,*7F
$GPGLL,3854.878,N,07702.537,W,013317.811,V*30
$GPGSA,A,2,07,05,17,14,11,13,,,,,,,0.5,0.1,0.3*37
$GPGGA,013319.811,3854.876,N,07702.538,W,0,00,0.1,,M,,M,,*70
$GPGLL,3854.876,N,07702.538,W,013320.811,V*35
$GPGSA,A,2,07,05,17,14,11,13,,,,,,,0.0,0.3,0.9*3A
$GPGGA,013322.811,3854.874,N,07702.538,W,0,00,0.3,,M,,M,,*78
$GPGLL,3854.874,N,07702.538,W,013323.811,V*34
$GPGSA,A,2,07,05,17,14,11,13,,,,,,,0.5,0.5,0.4*34
$GPGGA,013325.811,3854.873,N,07702.538,W,0,00,0.5,,M,,M,,*7E
$GPGLL,3854.873,N,07702.538,W,013326.811,V*36
$GPGSA,A,2,07,05,17,14,11,13,,,,,,,0.4,0.2,0.1*37
$GPGGA,013328.811,3854.871,N,07702.538,W,0,00,0.2,,M,,M,,*76
$GPGLL,3854.871,N,07702.538,W,013329.811,V*3B
$GPGSA,A,3,07,05,17,14,11,13,,,,,,,0.3,0.6,0.7*33
$GPGGA,013331.811,3854.869,N,07702.538,W,0,00,0.6,,M,,M,,*73
$GPGLL,3854.869,N,07702.538,W,013332.811,V*38
$GPGSA,A,2,07,05,17,14,11,13,,,,,,,0.6,0.4,0.9*3B
$GPGGA,013334.811,3854.867,N,07702.538,W,0,00,0.4,,M,,M,,*7A
$GPGLL,3854.867,N,07702.538,W,013335.811,V*31
$GPGSA,A,2,07,05,17,14,11,13,,,,,,,0.6,0.6,0.9*39
$GPGGA,013337.811,3854.865,N,07702.538,W,0,00,0.6,,M,,M,,*79
$GPGLL,3854.865,N,07702.538,W,013338.811,V*3E
$GPGSA,A,3,07,05,17,14,11,13,,,,,,,0.2,0.5,1.0*37
$GPGGA,013340.811,3854.864,N,07702.538,W,0,00,0.5,,M,,M,,*7B
$GPGLL,3854.864,N,07702.538,W,013341.811,V*31
$GPGSA,A,2,07,05,17,14,11,13,,,,,,,0.9,1.0,0.6*3E
$GPGGA,013343.811,3854.862,N,07702.537,W,0,00,1.0,,M,,M,,*75
$GPGLL,3854.862,N,07702.537,W,013344.811,V*3D
$GPGSA,A,2,07,05,17,14,11,13,,,,,,,0.1,0.9,0.6*3E
$GPGGA,013346.811,3854.860,N,07702.537,W,0,00,0.9,,M,,M,,*7A
$GPGLL,3854.860,N,07702.537,W,013347.811,V*3C
$GPGSA,A,2,07,05,17,14,11,13,,,,,,,0.9,0.5,0.4*38
$GPGGA,013349.811,3854.858,N,07702.537,W,0,00,0.5,,M,,M,,*72
$GPGLL,3854.858,N,07702.537,W,013350.811,V*31
$GPGSA,A,2,07,05,17,14,11,13,,,,,,,0.7,0.3,0.6*32
$GPGGA,013352.811,3854.856,N,07702.537,W,0,00,0.3,,M,,M,,*70
$GPGLL,3854.856,N,07702.537,W,013353.811,V*3C
$GPGSA,A,2,07,05,17,14,11,13,,,,,,,0.7,0.2,0.5*30
$GPGGA,013355.811,3854.855,N,07702.536,W,0,00,0.2,,M,,M,,*74
$GPGLL,3854.855,N,07702.536,W,013356.811,V*3B
$GPGSA,A,3,07,05,17,14,11,13,,,,,,,1.0,0.6,0.9*3F
$GPGGA,013358.811,3854.853,N,07702.536,W,0,00,0.6,,M,,M,,*7B
$GPGLL,3854.853,N,07702.536,W,013359.811,V*32
$GPGSA,A,3,07,05,17,14,11,13,,,,,,,0.5,0.7,0.0*33
$GPGGA,013401.811,3854.852,N,07702.535,W,0,00,0.7,,M,,M,,*73
$GPGLL,3854.852,N,07702.535,W,013402.811,V*39
$GPGSA,A,3,07,05,17,14,11,13,,,,,,,0.0,0.4,0.9*3C
$GPGGA,013404.811,3854.850,N,07702.534,W,0,00,0.4,,M,,M,,*76
$GPGLL,3854.850,N,07702.534,W,013405.811,V*3D
$GPGSA,A,2,07,05,17,14,11,13,,,,,,,0.3,0.9,0.7*3D
$GPGGA,013407.811,3854.849,N,07702.533,W,0,00,0.9,,M,,M,,*77
$GPGLL,3854.849,N,07702.533,W,013408.811,V*3F
$GPGSA,A,3,07,05,17,14,11,13,,,,,,,0.6,0.6,0.0*31
$GPGGA,013410.811,3854.847,N,07702.532,W,0,00,0.6,,M,,M,,*71
$GPGLL,3854.847,N,07702.532,W,013411.811,V*38
$GPGSA,A,2,07,05,17,14,11,13,,,,,,,0.3,0.8,0.9*32
$GPGGA,013413.811,3854.846,N,07702.530,W,0,00,0.8,,M,,M,,*7F
$GPGLL,3854.846,N,07702.530,W,013414.811,V*3E
$GPGSA,A,3,07,05,17,14,11,13,,,,,,,0.2,0.8,0.9*32
$GPGGA,013416.811,3854.845,N,07702.529,W,0,00,0.8,,M,,M,,*71
$GPGLL,3854.845,N,07702.529,W,013417.811,V*36
$GPGSA,A,2,07,05,17,14,11,13,,,,,,,0.1,0.3,0.1*33
$GPGGA,013419.811,3854.843,N,07702.528,W,0,00,0.3,,M,,M,,*72
$GPGLL,3854.843,N,07702.528,W,013420.811,V*35
$GPGSA,A,3,07,05,17,14,11,13,,,,,,,0.8,0.1,0.9*31
$GPGGA,013422.811,3854.842,N,07702.527,W,0,00,0.1,,M,,M,,*76
$GPGLL,3854.842,N,07702.527,W,013423.811,V*38
$GPGSA,A,3,07,05,17,14,11,13,,,,,,,0.0,0.8,0.1*38
$GPGGA,013425.811,3854.841,N,07702.525,W,0,00,0.8,,M,,M,,*79
$GPGLL,3854.841,N,07702.525,W,013426.811,V*3C
$GPGSA,A,3,07,05,17,14,11,13,,,,,,,0.5,0.3,0.9*3E
$GPGGA,013428.811,3854.839,N,07702.524,W,0,00,0.3,,M,,M,,*71
$GPGLL,3854.839,N,07702.524,W,013429.811,V*3D
$GPGSA,A,2,07,05,17,14,11,13,,,,,,,0.8,0.3,0.3*38
$GPGGA,013431.811,3854.838,N,07702.523,W,0,00,0.3,,M,,M,,*7F
$GPGLL,3854.838,N,07702.523,W,013432.811,V*31
$GPGSA,A,3,07,05,17,14,11,13,,,,,,,0.9,0.5,0.1*3C
$GPGGA,013434.811,3854.837,N,07702.522,W,0,00,0.5,,M,,M,,*72
$GPGLL,3854.837,N,07702.522,W,013435.811,V*38
$GPGSA,A,2,07,05,17,14,11,13,,,,,,,0.7,0.4,0.3*30
$GPGGA,013437.811,3854.836,N,07702.520,W,0,00,0.4,,M,,M,,*73
$GPGLL,3854.836,N,07702.520,W,013438.811,V*36
$GPGSA,A,2,07,05,17,14,11,13,,,,,,,0.8,0.9,0.1*30
$GPGGA,013440.811,3854.834,N,07702.519,W,0,00,0.9,,M,,M,,*76
$GPGLL,3854.834,N,07702.519,W,013441.811,V*30
$GPGSA,A,2,07,05,17,14,11,13,,,,,,,0.6,0.7,0.5*34
$GPGGA,013443.811,3854.833,N,07702.518,W,0,00,0.7,,M,,M,,*7D
$GPGLL,3854.833,N,07702.518,W,013444.811,V*33
$GPGSA,A,2,07,05,17,14,11,13,,,,,,,0.2,0.9,0.6*3D
$GPGGA,013446.811,3854.831,N,07702.517,W,0,00,0.9,,M,,M,,*7B
$GPGLL,3854.831,N,07702.517,W,013447.811,V*3D
$GPGSA,A,3,07,05,17,14,11,13,,,,,,,0.3,0.6,1.0*35
$GPGGA,013449.811,3854.830,N,07702.516,W,0,00,0.6,,M,,M,,*7B
$GPGLL,3854.830,N,07702.516,W,013450.811,V*3B
$GPGSA,A,2,07,05,17,14,11,13,,,,,,,1.0,0.4,0.4*31
$GPGGA,013452.811,3854.829,N,07702.515,W,0,00,0.4,,M,,M,,*78
$GPGLL,3854.829,N,07702.515,W,013453.811,V*33
$GPGSA,A,2,07,05,17,14,11,13,,,,,,,0.6,0.1,0.1*36
$GPGGA,013455.811,3854.827,N,07702.514,W,0,00,0.1,,M,,M,,*75
$GPGLL,3854.827,N,07702.514,W,013456.811,V*39
$GPGSA,A,2,07,05,17,14,11,13,,,,,,,0.4,0.5,0.7*36
$GPGGA,013458.811,3854.826,N,07702.513,W,0,00,0.5,,M,,M,,*7A
$GPGLL,3854.826,N,07702.513,W,013459.811,V*30
$GPGSA,A,2,07,05,17,14,11,13,,,,,,,0.1,0.2,0.5*36
$GPGGA,013501.811,3854.824,N,07702.511,W,0,00,0.2,,M,,M,,*70
$GPGLL,3854.824,N,07702.511,W,013502.811,V*3F
$GPGSA,A,3,07,05,17,14,11,13,,,,,,,0.1,0.4,0.7*33
$GPGGA,013504.811,3854.823,N,07702.510,W,0,00,0.4,,M,,M,,*75
$GPGLL,3854.823,N,07702.510,W,013505.811,V*3E
$GPGSA,A,2,07,05,17,14,11,13,,,,,,,1.0,0.0,0.3*32
$GPGGA,013507.811,3854.822,N,07702.509,W,0,00,0.0,,M,,M,,*7B
$GPGLL,3854.822,N,07702.509,W,013508.811,V*3A
$GPGSA,A,2,07,05,17,14,11,13,,,,,,,0.2,1.0,0.4*37
$GPGGA,013510.811,3854.821,N,07702.507,W,0,00,1.0,,M,,M,,*71
$GPGLL,3854.821,N,07702.507,W,013511.811,V*3F
$GPGSA,A,2,07,05,17,14,11,13,,,,,,,0.7,0.5,0.1*33
$GPGGA,013513.811,3854.820,N,07702.506,W,0,00,0.5,,M,,M,,*76
$GPGLL,3854.820,N,07702.506,W,013514.811,V*3A
$GPGSA,A,2,07,05,17,14,11,13,,,,,,,0.9,0.4,0.6*3B
$GPGGA,013516.811,3854.818,N,07702.505,W,0,00,0.4,,M,,M,,*7A
$GPGLL,3854.818,N,07702.505,W,013517.811,V*31
$GPGSA,A,2,07,05,17,14,11,13,,,,,,,0.6,0.6,0.4*34
$GPGGA,013519.811,3854.817,N,07702.503,W,0,00,0.6,,M,,M,,*7E
$GPGLL,3854.817,N,07702.503,W,013520.811,V*3C
$GPGSA,A,3,07,05,17,14,11,13,,,,,,,0.2,0.7,1.0*35
$GPGGA,013522.811,3854.816,N,07702.502,W,0,00,0.7,,M,,M,,*77
$GPGLL,3854.816,N,07702.502,W,013523.811,V*3F
$GPGSA,A,3,07,05,17,14,11,13,,,,,,,0.9,0.8,0.9*39
$GPGGA,013525.811,3854.815,N,07702.501,W,0,00,0.8,,M,,M,,*7F
$GPGLL,3854.815,N,07702.501,W,013526.811,V*3A
$GPGSA,A,3,07,05,17,14,11,13,,,,,,,0.7,0.6,0.0*30
$GPGGA,013528.811,3854.813,N,07702.500,W,0,00,0.6,,M,,M,,*7B
$GPGLL,3854.813,N,07702.500,W,013529.811,V*32
$GPGSA,A,2,07,05,17,14,11,13,,,,,,,0.3,0.3,0.2*32
$GPGGA,013531.811,3854.812,N,07702.499,W,0,00,0.3,,M,,M,,*76
$GPGLL,3854.812,N,07702.499,W,013532.811,V*38
$GPGSA,A,3,07,05,17,14,11,13,,,,,,,0.7,0.4,0.1*33
$GPGGA,013534.811,3854.810,N,07702.498,W,0,00,0.4,,M,,M,,*77
$GPGLL,3854.810,N,07702.498,W,013535.811,V*3C
$GPGSA,A,3,07,05,17,14,11,13,,,,,,,0.2,0.8,0.6*3D
$GPGGA,013537.811,3854.808,N,07702.498,W,0,00,0.8,,M,,M,,*71
$GPGLL,3854.808,N,07702.498,W,013538.811,V*38
$GPGSA,A,3,07,05,17,14,11,13,,,,,,,0.0,0.5,0.7*33
$GPGGA,013540.811,3854.806,N,07702.497,W,0,00,0.5,,M,,M,,*7D
$GPGLL,3854.806,N,07702.497,W,013541.811,V*37
$GPGSA,A,2,07,05,17,14,11,13,,,,,,,0.7,0.5,0.7*35
$GPGGA,013543.811,3854.805,N,07702.496,W,0,00,0.5,,M,,M,,*7C
$GPGLL,3854.805,N,07702.496,W,013544.811,V*30
$GPGSA,A,2,07,05,17,14,11,13,,,,,,,0.8,0.5,0.6*3B
$GPGGA,013546.811,3854.803,N,07702.496,W,0,00,0.5,,M,,M,,*7F
$GPGLL,3854.803,N,07702.496,W,013547.811,V*35
$GPGSA,A,2,07,05,17,14,11,13,,,,,,,0.3,0.2,0.8*39
$GPGGA,013549.811,3854.802,N,07702.495,W,0,00,0.2,,M,,M,,*75
$GPGLL,3854.802,N,07702.495,W,013550.811,V*31
$GPGSA,A,3,07,05,17,14,11,13,,,,,,,0.9,0.4,0.8*34
$GPGGA,013552.811,3854.800,N,07702.494,W,0,00,0.4,,M,,M,,*7A
$GPGLL,3854.800,N,07702.494,W,013553.811,V*31
$GPGSA,A,3,07,05,17,14,11,13,,,,,,,0.4,0.3,0.5*33
$GPGGA,013555.811,3854.799,N,07702.493,W,0,00,0.3,,M,,M,,*72
$GPGLL,3854.799,N,07702.493,W,013556.811,V*3C
$GPGSA,A,2,07,05,17,14,11,13,,,,,,,0.3,0.9,0.4*3E
$GPGGA,013558.811,3854.797,N,07702.492,W,0,00,0.9,,M,,M,,*7A
$GPGLL,3854.797,N,07702.492,W,013559.811,V*3C
$GPGSA,A,2,07,05,17,14,11,13,,,,,,,0.2,0.1,0.6*35
$GPGGA,013601.811,3854.796,N,07702.490,W,0,00,0.1,,M,,M,,*7E
$GPGLL,3854.796,N,07702.490,W,013602.811,V*32
$GPGSA,A,2,07,05,17,14,11,13,,,,,,,0.4,0.0,0.8*3C
$GPGGA,013604.811,3854.795,N,07702.489,W,0,00,0.0,,M,,M,,*71
$GPGLL,3854.795,N,07702.489,W,013605.811,V*3E
$GPGSA,A,3,07,05,17,14,11,13,,,,,,,0.1,0.4,0.3*37
$GPGGA,013607.811,3854.794,N,07702.487,W,0,00,0.4,,M,,M,,*79
$GPGLL,3854.794,N,07702.487,W,013608.811,V*3C
$GPGSA,A,2,07,05,17,14,11,13,,,,,,,0.2,0.9,0.8*33
$GPGGA,013610.811,3854.792,N,07702.486,W,0,00,0.9,,M,,M,,*75
$GPGLL,3854.792,N,07702.486,W,013611.811,V*33
$GPGSA,A,2,07,05,17,14,11,13,,,,,,,0.9,0.2,0.1*3A
$GPGGA,013613.811,3854.791,N,07702.485,W,0,00,0.2,,M,,M,,*7D
$GPGLL,3854.791,N,07702.485,W,013614.811,V*36
$GPGSA,A,2,07,05,17,14,11,13,,,,,,,0.8,0.2,1.0*3B
$GPGGA,013616.811,3854.790,N,07702.484,W,0,00,0.2,,M,,M,,*78
$GPGLL,3854.790,N,07702.484,W,013617.811,V*35
$GPGSA,A,3,07,05,17,14,11,13,,,,,,,0.4,0.8,0.5*38
$GPGGA,013619.811,3854.788,N,07702.483,W,0,00,0.8,,M,,M,,*73
$GPGLL,3854.788,N,07702.483,W,013620.811,V*3F
$GPGSA,A,2,07,05,17,14,11,13,,,,,,,0.8,0.6,0.6*38